[
    {
        "type": "map-city-accommodation",
        "data": [
            {
                "city": "Adana",
                "name": "Bahçeşehir Koleji",
                "is_validated": true,
                "url": "https://twitter.com/zeydankaralar01/status/1622644817506205709?s=46&t=BPAhJVUaSEp-FhJyk7mw2A",
                "validation_date": "08.02.2023",
                "latitute": "37.0185809",
                "longitude": "35.2488164"
            },
            {
                "city": "Adana",
                "name": "Uğur Okulları",
                "is_validated": true,
                "url": "https://twitter.com/zeydankaralar01/status/1622644817506205709?s=46&t=BPAhJVUaSEp-FhJyk7mw2A",
                "validation_date": "07.02.2023",
                "latitute": "37.0058989",
                "longitude": "35.2479651"
            },
            {
                "city": "Adana",
                "name": "Çağ Üniversitesi Yaşar Bayboğan Kampüsü",
                "is_validated": true,
                "url": "https://twitter.com/Adana_Bld/status/1622962147322916864?s=20&t=UsNDJEhPEMucsKPTHjHcTg",
                "validation_date": "09.02.2023",
                "latitute": "36.9756887",
                "longitude": "35.0747992"
            },
            {
                "city": "Adana",
                "name": "ASKON Adana Şubesi",
                "is_validated": true,
                "url": "https://twitter.com/orhanaydin/status/1622517195937923075?s=46&t=BPAhJVUaSEp-FhJyk7mw2A",
                "validation_date": null,
                "latitute": "36.9941803",
                "longitude": "35.2834943"
            },
            {
                "city": "Adana",
                "name": "Adana Final Okulları",
                "is_validated": true,
                "url": "https://twitter.com/zeydankaralar01/status/1622644817506205709?s=46&t=BPAhJVUaSEp-FhJyk7mw2A",
                "validation_date": "07.02.2023",
                "latitute": "37.0452508",
                "longitude": "35.2594561"
            },
            {
                "city": "Adana",
                "name": "TED Adana Koleji",
                "is_validated": true,
                "url": "https://twitter.com/zeydankaralar01/status/1622644817506205709?s=46&t=BPAhJVUaSEp-FhJyk7mw2A",
                "validation_date": null,
                "latitute": "37.0268743",
                "longitude": "35.1747133"
            },
            {
                "city": "Adıyaman",
                "name": "Adıyaman Atatürk Stadyumu Tribün Altı Antrenman Salonları",
                "is_validated": true,
                "url": null,
                "validation_date": "09/02/2023",
                "latitute": "37.7579562",
                "longitude": "38.2811903"
            },
            {
                "city": "Adana",
                "name": "Başkent Üniversitesi Özel Başkent Okulları",
                "is_validated": true,
                "url": "https://twitter.com/iskaraman/status/1623093598722859008",
                "validation_date": "08.02.2023",
                "latitute": "37.0450167",
                "longitude": "35.2747737"
            },
            {
                "city": "Adana",
                "name": "Saydam Otel",
                "is_validated": true,
                "url": null,
                "validation_date": "08/02/2023",
                "latitute": "36.9843421",
                "longitude": "35.3225965"
            },
            {
                "city": "Adana",
                "name": "İsmet Atlı Güreş Eğitim Merkezi",
                "is_validated": true,
                "url": null,
                "validation_date": "09/02/2023",
                "latitute": "37.0223198",
                "longitude": "35.3271436"
            },
            {
                "city": "Diyarbakır",
                "name": "Kent Meydanı",
                "is_validated": true,
                "url": "https://twitter.com/diyarbakirbld/status/1622625704750751744",
                "validation_date": "07.02.2023",
                "latitute": "37.9444119",
                "longitude": "40.1649095"
            },
            {
                "city": "Adana",
                "name": "Adana Cemevi",
                "is_validated": true,
                "url": "https://twitter.com/turkdaimaileri/status/1622567979270516736?s=46&t=BPAhJVUaSEp-FhJyk7mw2A",
                "validation_date": null,
                "latitute": "37.0399835",
                "longitude": "35.2467078"
            },
            {
                "city": "Diyarbakır",
                "name": "Şehit Hatip Çağlar AL",
                "is_validated": true,
                "url": "https://twitter.com/diyarbakirbld/status/1622621969840590848",
                "validation_date": "07.02.2023",
                "latitute": "37.9162399",
                "longitude": "40.1957387"
            },
            {
                "city": "Adana",
                "name": "Sedef Hotel",
                "is_validated": true,
                "url": "https://www.otelz.com/gecmisolsunturkiyem",
                "validation_date": "07.02.2023",
                "latitute": "36.9922255",
                "longitude": "35.3148754"
            },
            {
                "city": "Diyarbakır",
                "name": "Sur Anadolu İmam Hatip Lisesi",
                "is_validated": true,
                "url": "https://twitter.com/diyarbakirbld/status/1622621969840590848",
                "validation_date": "07.02.2023",
                "latitute": "38.3980797",
                "longitude": "37.905101"
            },
            {
                "city": "Adana",
                "name": "Adana Koleji",
                "is_validated": true,
                "url": "https://twitter.com/zeydankaralar01/status/1622644817506205709?s=46&t=BPAhJVUaSEp-FhJyk7mw2A",
                "validation_date": "07.02.2023",
                "latitute": "37.0224446",
                "longitude": "35.3140506"
            },
            {
                "city": "Diyarbakır",
                "name": "Bağcılar Mesleki ve Teknik Anadolu Lisesi",
                "is_validated": true,
                "url": "https://twitter.com/diyarbakirbld/status/1622621969840590848",
                "validation_date": "07.02.2023",
                "latitute": "37.9157994",
                "longitude": "40.1685063"
            },
            {
                "city": "Diyarbakır",
                "name": "Sümerpark",
                "is_validated": true,
                "url": "https://twitter.com/diyarbakirbld/status/1622625704750751744",
                "validation_date": "07.02.2023",
                "latitute": "38.3980797",
                "longitude": "37.905101"
            },
            {
                "city": "Adana",
                "name": "Yeni Adana Stadyumu",
                "is_validated": true,
                "url": null,
                "validation_date": "09/02/2023",
                "latitute": "37.0635716",
                "longitude": "35.3728853"
            },
            {
                "city": "Diyarbakır",
                "name": "İMKB Fen Lisesi",
                "is_validated": true,
                "url": "https://twitter.com/diyarbakirbld/status/1622621969840590848",
                "validation_date": "07.02.2023",
                "latitute": "37.9234507",
                "longitude": "40.2144822"
            },
            {
                "city": "Osmaniye",
                "name": "Osmaniye Kız Yurdu",
                "is_validated": true,
                "url": "https://twitter.com/kasapoglu/status/1622646258308349954",
                "validation_date": "07.02.2023",
                "latitute": "37.051787",
                "longitude": "36.233204"
            },
            {
                "city": "Şanlıurfa",
                "name": "Karaköprü Kapalı Spor Salonu",
                "is_validated": true,
                "url": "https://gsb.gov.tr/haber-detay.html/968",
                "validation_date": "09/02/2023",
                "latitute": "37.2147681",
                "longitude": "38.7973943"
            },
            {
                "city": "Hatay",
                "name": "Dörtyol Yunus Emre Ortaokulu",
                "is_validated": true,
                "url": "https://www.instagram.com/p/CoXjqwZID4_/",
                "validation_date": "08.02.2023",
                "latitute": "36.8429239",
                "longitude": "36.2251736"
            },
            {
                "city": "Şanlıurfa",
                "name": "Halfeti Gençlik Merkezi",
                "is_validated": true,
                "url": "https://twitter.com/sanliurfabld/status/1622444884618616834?s=46&t=BPAhJVUaSEp-FhJyk7mw2A",
                "validation_date": "07.02.2023",
                "latitute": "37.1056589",
                "longitude": "38.9000033"
            },
            {
                "city": "Gaziantep",
                "name": "İslahiye Atatürk Stadı",
                "is_validated": true,
                "url": null,
                "validation_date": "09/02/2023",
                "latitute": "37.0380759",
                "longitude": "36.632164"
            },
            {
                "city": "Hatay",
                "name": "Dörtyol Atatürk Ortaokulu",
                "is_validated": true,
                "url": "https://www.instagram.com/p/CoXjqwZID4_/",
                "validation_date": "08.02.2023",
                "latitute": "36.8361242",
                "longitude": "36.2340388"
            },
            {
                "city": "Hatay",
                "name": "Merkez Cimnastik Spor Salonu",
                "is_validated": true,
                "url": "https://gsb.gov.tr/haber-detay.html/968",
                "validation_date": "09/02/2023",
                "latitute": "36.2288983",
                "longitude": "36.1202757"
            },
            {
                "city": "Şanlıurfa",
                "name": "11 Nisan Kapalı Spor Salonu",
                "is_validated": true,
                "url": "https://gsb.gov.tr/haber-detay.html/968",
                "validation_date": "09/02/2023",
                "latitute": "37.1598713",
                "longitude": "38.7867473"
            },
            {
                "city": "Hatay",
                "name": "Dörtyol Anadolu İmamhatip Lisesi",
                "is_validated": true,
                "url": "https://www.instagram.com/p/CoXjqwZID4_/",
                "validation_date": "08.02.2023",
                "latitute": "36.8516469",
                "longitude": "36.2253035"
            },
            {
                "city": "Şanlıurfa",
                "name": "Sırrın Cami",
                "is_validated": true,
                "url": "https://twitter.com/sanliurfabld/status/1622478014129782784?s=46&t=BPAhJVUaSEp-FhJyk7mw2A",
                "validation_date": "07.02.2023",
                "latitute": "37.1623533",
                "longitude": "38.8256934"
            },
            {
                "city": "Gaziantep",
                "name": "Perilikaya Spor Salonu",
                "is_validated": true,
                "url": "https://twitter.com/fatmasahin/status/1622499495853322242?s=46&t=BPAhJVUaSEp-FhJyk7mw2A",
                "validation_date": "07.02.2023",
                "latitute": "37.0518133",
                "longitude": "37.3849696"
            },
            {
                "city": "Kahramanmaraş",
                "name": "Saim Çotur Spor Salonu",
                "is_validated": true,
                "url": "https://gsb.gov.tr/haber-detay.html/968",
                "validation_date": "07.02.2023",
                "latitute": "37.5950319",
                "longitude": "36.85047"
            },
            {
                "city": "Kahramanmaraş",
                "name": "İyilik Balonu Aşevi",
                "is_validated": true,
                "url": null,
                "validation_date": "09.02.2023",
                "latitute": "37.5648804",
                "longitude": "36.9014931"
            },
            {
                "city": "Gaziantep",
                "name": "Panaroma Müzesi",
                "is_validated": true,
                "url": "https://twitter.com/fatmasahin/status/1622499495853322242?s=46&t=BPAhJVUaSEp-FhJyk7mw2A",
                "validation_date": "07.02.2023",
                "latitute": "37.0659375",
                "longitude": "37.37753"
            },
            {
                "city": "Gaziantep",
                "name": "Müzeyyen Erkul Bilim ve Sanat Merkezi",
                "is_validated": true,
                "url": "https://twitter.com/fatmasahin/status/1622499495853322242?s=46&t=BPAhJVUaSEp-FhJyk7mw2A",
                "validation_date": "07.02.2023",
                "latitute": "37.02801",
                "longitude": "37.3092025"
            },
            {
                "city": "Şanlıurfa",
                "name": "11 Nisan Olimpik Yüzme Havuzu",
                "is_validated": true,
                "url": "https://gsb.gov.tr/haber-detay.html/968",
                "validation_date": "09/02/2023",
                "latitute": "37.1625405",
                "longitude": "38.8135467"
            },
            {
                "city": "Hatay",
                "name": "Dörtyol Makbule Hanım Anaokulu",
                "is_validated": true,
                "url": "https://www.instagram.com/p/CoXjqwZID4_/",
                "validation_date": "08.02.2023",
                "latitute": "36.824381",
                "longitude": "36.2052191"
            },
            {
                "city": "Gaziantep",
                "name": "Gaziler Spor Salonu",
                "is_validated": true,
                "url": "https://twitter.com/fatmasahin/status/1622499495853322242?s=46&t=BPAhJVUaSEp-FhJyk7mw2A",
                "validation_date": "07.02.2023",
                "latitute": "37.0948312",
                "longitude": "37.4324031"
            },
            {
                "city": "Hatay",
                "name": "Dörtyol Yeniyurt Ortaokulu",
                "is_validated": true,
                "url": "https://www.instagram.com/p/CoXjqwZID4_/",
                "validation_date": "08.02.2023",
                "latitute": "36.8936677",
                "longitude": "36.1559351"
            },
            {
                "city": "Şanlıurfa",
                "name": "Siverek Gençlik Merkezi",
                "is_validated": true,
                "url": "https://twitter.com/sanliurfabld/status/1622478014129782784?s=46&t=BPAhJVUaSEp-FhJyk7mw2A",
                "validation_date": "07.02.2023",
                "latitute": "37.1623533",
                "longitude": "38.8256934"
            },
            {
                "city": "Gaziantep",
                "name": "Oğuzeli Spor Salonu",
                "is_validated": true,
                "url": null,
                "validation_date": "09/02/2023",
                "latitute": "36.9589157",
                "longitude": "37.5083193"
            },
            {
                "city": "Diyarbakır",
                "name": "Diyarbakır Dicle Üniversitesi",
                "is_validated": true,
                "url": null,
                "validation_date": "09/02/2023",
                "latitute": "37.9203042",
                "longitude": "40.2328649"
            },
            {
                "city": "Gaziantep",
                "name": "İslahiye Gençlik Merkezi",
                "is_validated": true,
                "url": null,
                "validation_date": "09/02/2023",
                "latitute": "37.0389099",
                "longitude": "36.6321787"
            },
            {
                "city": "Gaziantep",
                "name": "Araban Spor Salonu",
                "is_validated": true,
                "url": null,
                "validation_date": "09/02/2023",
                "latitute": "37.4265028",
                "longitude": "37.6712888"
            },
            {
                "city": "Hatay",
                "name": "Dörtyol Atatürk Parkı Düğün Salonu",
                "is_validated": true,
                "url": "https://www.instagram.com/p/CoXjqwZID4_/",
                "validation_date": "08.02.2023",
                "latitute": "36.8364406",
                "longitude": "36.2225329"
            },
            {
                "city": "Adana",
                "name": "Ceyhan Spor Salonu",
                "is_validated": true,
                "url": null,
                "validation_date": "09/02/2023",
                "latitute": "37.0277949",
                "longitude": "35.8234857"
            },
            {
                "city": "Gaziantep",
                "name": "Çok Amaçlı Spor Salonu",
                "is_validated": true,
                "url": null,
                "validation_date": "09/02/2023",
                "latitute": "37.0979942",
                "longitude": "37.35754"
            },
            {
                "city": "Şanlıurfa",
                "name": "Suruç Gençlik Merkezi",
                "is_validated": true,
                "url": "https://twitter.com/sanliurfabld/status/1622478014129782784?s=46&t=BPAhJVUaSEp-FhJyk7mw2A",
                "validation_date": "07.02.2023",
                "latitute": "36.9754821",
                "longitude": "38.4139936"
            },
            {
                "city": "Hatay",
                "name": "Dörtyol Şehit Harun Taş İlkokulu",
                "is_validated": true,
                "url": "https://www.instagram.com/p/CoXjqwZID4_/",
                "validation_date": "08.02.2023",
                "latitute": "36.8154158",
                "longitude": "36.2245443"
            },
            {
                "city": "Gaziantep",
                "name": "Ulaş Spor Salonu",
                "is_validated": true,
                "url": "https://twitter.com/fatmasahin/status/1622499495853322242?s=46&t=BPAhJVUaSEp-FhJyk7mw2A",
                "validation_date": "07.02.2023",
                "latitute": "37.043171",
                "longitude": "37.3696571"
            },
            {
                "city": "Gaziantep",
                "name": "Goap",
                "is_validated": true,
                "url": "https://twitter.com/fatmasahin/status/1622499495853322242?s=46&t=BPAhJVUaSEp-FhJyk7mw2A",
                "validation_date": "07.02.2023",
                "latitute": "37.0785936",
                "longitude": "37.3655485"
            },
            {
                "city": "Adana",
                "name": "Adana Garı",
                "is_validated": true,
                "url": "https://www.instagram.com/p/CoX3dz0A_Pw/?igshid=NTdlMDg3MTY%3D",
                "validation_date": "08.02.2023",
                "latitute": "37.0037822",
                "longitude": "35.3190971"
            },
            {
                "city": "Hatay",
                "name": "Dörtyol İlk Kurşun İlkokulu",
                "is_validated": true,
                "url": "https://www.instagram.com/p/CoXjqwZID4_/",
                "validation_date": "08.02.2023",
                "latitute": "36.8329577",
                "longitude": "36.2156843"
            },
            {
                "city": "Adana",
                "name": "Toroslar Yurdu",
                "is_validated": true,
                "url": null,
                "validation_date": "09/02/2023",
                "latitute": "37.0358729",
                "longitude": "35.3537954"
            },
            {
                "city": "Diyarbakır",
                "name": "85. Yıl Milli Egemenlik Lisesi",
                "is_validated": true,
                "url": "https://twitter.com/diyarbakirbld/status/1622622331301511169",
                "validation_date": "07.02.2023",
                "latitute": "37.9015518",
                "longitude": "40.221541"
            },
            {
                "city": "Diyarbakır",
                "name": "TOBB Ferdi Yiğit AİHL",
                "is_validated": true,
                "url": "https://twitter.com/diyarbakirbld/status/1622621969840590848",
                "validation_date": "07.02.2023",
                "latitute": "37.9234507",
                "longitude": "40.2144822"
            },
            {
                "city": "Diyarbakır",
                "name": "Borsa İstanbul Fen Lisesi",
                "is_validated": true,
                "url": "https://twitter.com/diyarbakirbld/status/1622621969840590848",
                "validation_date": "07.02.2023",
                "latitute": "37.9118588",
                "longitude": "40.1092472"
            },
            {
                "city": "Diyarbakır",
                "name": "Koşuyolu",
                "is_validated": true,
                "url": "https://twitter.com/diyarbakirbld/status/1622625704750751744",
                "validation_date": "07.02.2023",
                "latitute": "38.3980797",
                "longitude": "37.905101"
            },
            {
                "city": "Diyarbakır",
                "name": "Rekabet Kurumu Cumhuriyet Fen Lisesi",
                "is_validated": true,
                "url": "https://twitter.com/diyarbakirbld/status/1622622331301511169",
                "validation_date": "07.02.2023",
                "latitute": "37.9015518",
                "longitude": "40.221541"
            },
            {
                "city": "Adana",
                "name": "Menderes Spor Salonu",
                "is_validated": true,
                "url": null,
                "validation_date": "09/02/2023",
                "latitute": "37.0002035",
                "longitude": "35.3285597"
            },
            {
                "city": "Adana",
                "name": "Altıneller 100.Yıl ve Mavi Bulvar Kampüsü",
                "is_validated": true,
                "url": "https://twitter.com/zeydankaralar01/status/1622644817506205709?s=46&t=BPAhJVUaSEp-FhJyk7mw2A",
                "validation_date": null,
                "latitute": "37.0381713",
                "longitude": "35.2401759"
            },
            {
                "city": "Diyarbakır",
                "name": "Vali Aydın Aslan Fen Lisesi",
                "is_validated": true,
                "url": "https://twitter.com/diyarbakirbld/status/1622621969840590848",
                "validation_date": "07.02.2023",
                "latitute": "38.3980797",
                "longitude": "37.905101"
            },
            {
                "city": "Diyarbakır",
                "name": "Diyarbakır Cemevi",
                "is_validated": true,
                "url": "https://twitter.com/turkdaimaileri/status/1622567979270516736?s=46&t=BPAhJVUaSEp-FhJyk7mw2A",
                "validation_date": "07.02.2023",
                "latitute": "38.3980797",
                "longitude": "37.905101"
            },
            {
                "city": "Adana",
                "name": "Çukurova Atletizm Pisti",
                "is_validated": true,
                "url": null,
                "validation_date": "09/02/2023",
                "latitute": "37.0320549",
                "longitude": "35.2634958"
            },
            {
                "city": "Diyarbakır",
                "name": "Rekabet Kurumu Anadolu Lisesi",
                "is_validated": true,
                "url": "https://twitter.com/diyarbakirbld/status/1622622331301511169",
                "validation_date": "07.02.2023",
                "latitute": "37.9163066",
                "longitude": "40.1629078"
            },
            {
                "city": "Adana",
                "name": "Minecan Anaokulu",
                "is_validated": true,
                "url": "https://twitter.com/zeydankaralar01/status/1622644817506205709?s=46&t=BPAhJVUaSEp-FhJyk7mw2A",
                "validation_date": "07.02.2023",
                "latitute": "37.0580993",
                "longitude": "35.2971793"
            },
            {
                "city": "Adana",
                "name": "Sedef Otel",
                "is_validated": true,
                "url": null,
                "validation_date": "08/02/2023",
                "latitute": "36.9922298",
                "longitude": "35.3126867"
            },
            {
                "city": "Diyarbakır",
                "name": "İbn-i Sina MTAL",
                "is_validated": true,
                "url": "https://twitter.com/diyarbakirbld/status/1622622331301511169",
                "validation_date": "07.02.2023",
                "latitute": "37.9077932",
                "longitude": "40.2132026"
            },
            {
                "city": "Diyarbakır",
                "name": "Şehit Halit Gülser Kız Anadolu İmam Hatip Lisesi",
                "is_validated": true,
                "url": "https://twitter.com/diyarbakirbld/status/1622622661649080322",
                "validation_date": "07.02.2023",
                "latitute": "37.939937",
                "longitude": "40.1365814"
            },
            {
                "city": "Adıyaman",
                "name": "Adıyaman Cemevi",
                "is_validated": true,
                "url": "https://twitter.com/turkdaimaileri/status/1622567979270516736?s=46&t=BPAhJVUaSEp-FhJyk7mw2A",
                "validation_date": null,
                "latitute": "37.7638891",
                "longitude": "38.262298"
            },
            {
                "city": "Adana",
                "name": "Gündoğdu Koleji",
                "is_validated": true,
                "url": "https://twitter.com/amofesor/status/1622607644832804865",
                "validation_date": "07.02.2023",
                "latitute": "37.034413",
                "longitude": "35.3131407"
            },
            {
                "city": "Adana",
                "name": "Nihat Geven Spor Salonu",
                "is_validated": true,
                "url": null,
                "validation_date": "09/02/2023",
                "latitute": "36.9720809",
                "longitude": "35.3125464"
            },
            {
                "city": "Adana",
                "name": "Garden Business Hotel",
                "is_validated": true,
                "url": null,
                "validation_date": "09.02.2023",
                "latitute": "36.9965439",
                "longitude": "35.3293225"
            },
            {
                "city": "Adana",
                "name": "Asım Savaş Spor Salonu",
                "is_validated": true,
                "url": null,
                "validation_date": "09/02/2023",
                "latitute": "37.0401779",
                "longitude": "35.419871"
            },
            {
                "city": "Diyarbakır",
                "name": "Yenişehir Şehitlik MTAL",
                "is_validated": true,
                "url": "https://twitter.com/diyarbakirbld/status/1622622661649080322",
                "validation_date": "07.02.2023",
                "latitute": "37.9165064",
                "longitude": "40.2119268"
            },
            {
                "city": "Diyarbakır",
                "name": "Yenişehir Kız Anadolu İmam Hatip Lisesi",
                "is_validated": true,
                "url": "https://twitter.com/diyarbakirbld/status/1622622331301511169",
                "validation_date": "07.02.2023",
                "latitute": "37.9015518",
                "longitude": "40.221541"
            },
            {
                "city": "Diyarbakır",
                "name": "Merkez Anadolu İmam Hatip Lisesi",
                "is_validated": true,
                "url": "https://twitter.com/diyarbakirbld/status/1622622331301511169",
                "validation_date": "07.02.2023",
                "latitute": "37.9077932",
                "longitude": "40.2132026"
            },
            {
                "city": "Diyarbakır",
                "name": "Diyarbakır Spor Lisesi",
                "is_validated": true,
                "url": "https://twitter.com/diyarbakirbld/status/1622622331301511169",
                "validation_date": "07.02.2023",
                "latitute": "37.9596326",
                "longitude": "40.1829298"
            },
            {
                "city": "Diyarbakır",
                "name": "Mehmet Akif Ersoy AİHL",
                "is_validated": true,
                "url": "https://twitter.com/diyarbakirbld/status/1622622661649080322",
                "validation_date": "07.02.2023",
                "latitute": "37.939937",
                "longitude": "40.1365814"
            },
            {
                "city": "Diyarbakır",
                "name": "Ziya Gökalp AL",
                "is_validated": true,
                "url": "https://twitter.com/diyarbakirbld/status/1622622331301511169",
                "validation_date": "07.02.2023",
                "latitute": "37.9163967",
                "longitude": "40.2299659"
            },
            {
                "city": "Diyarbakır",
                "name": "Şehit Ömer Halis Demir AİHL",
                "is_validated": true,
                "url": "https://twitter.com/diyarbakirbld/status/1622622661649080322",
                "validation_date": "07.02.2023",
                "latitute": "37.946738",
                "longitude": "40.1560643"
            },
            {
                "city": "Diyarbakır",
                "name": "Burhanettin Yıldız MTAL",
                "is_validated": true,
                "url": "https://twitter.com/diyarbakirbld/status/1622621969840590848",
                "validation_date": "07.02.2023",
                "latitute": "37.9157994",
                "longitude": "40.1685063"
            },
            {
                "city": "Diyarbakır",
                "name": "85. Yıl Milli Egemenlik AL",
                "is_validated": true,
                "url": "https://twitter.com/diyarbakirbld/status/1622622331301511169",
                "validation_date": "07.02.2023",
                "latitute": "37.9015518",
                "longitude": "40.221541"
            },
            {
                "city": "Konya",
                "name": "Mirel Hotel",
                "is_validated": true,
                "url": "http://mirelhotel.com/tr/index.html",
                "validation_date": "09/02/2023",
                "latitute": "37.5122019",
                "longitude": "34.0492273"
            },
            {
                "city": "Gaziantep",
                "name": "İncilikaya Spor Salonu",
                "is_validated": true,
                "url": "https://twitter.com/fatmasahin/status/1622499495853322242?s=46&t=BPAhJVUaSEp-FhJyk7mw2A",
                "validation_date": "07.02.2023",
                "latitute": "37.0476823",
                "longitude": "37.4389512"
            },
            {
                "city": "Adana",
                "name": "Serinevler Spor Salonu",
                "is_validated": true,
                "url": null,
                "validation_date": "09/02/2023",
                "latitute": "37.0038985",
                "longitude": "35.3559423"
            },
            {
                "city": "Diyarbakır",
                "name": "Karacadağ AİHL",
                "is_validated": true,
                "url": "https://twitter.com/diyarbakirbld/status/1622621969840590848",
                "validation_date": "07.02.2023",
                "latitute": "37.9089622",
                "longitude": "40.1649743"
            },
            {
                "city": "Diyarbakır",
                "name": "Seyrantepe Antrenman Salonu",
                "is_validated": true,
                "url": "https://twitter.com/dbakirvalilik/status/1622635300794077186",
                "validation_date": "07.02.2023",
                "latitute": "37.9569206",
                "longitude": "40.1579971"
            },
            {
                "city": "Diyarbakır",
                "name": "Diyarbakır Güzel Sanatlar Lisesi",
                "is_validated": true,
                "url": "https://twitter.com/diyarbakirbld/status/1622622331301511169",
                "validation_date": "07.02.2023",
                "latitute": "37.9015518",
                "longitude": "40.221541"
            },
            {
                "city": "Diyarbakır",
                "name": "Farabi Mesleki Teknik AL",
                "is_validated": true,
                "url": "https://twitter.com/diyarbakirbld/status/1622622331301511169",
                "validation_date": "07.02.2023",
                "latitute": "37.9077932",
                "longitude": "40.2132026"
            },
            {
                "city": "Diyarbakır",
                "name": "Şehitlik Köşkler Çok Amaçlı Salon",
                "is_validated": true,
                "url": "https://twitter.com/dbakirvalilik/status/1622635300794077186",
                "validation_date": "07.02.2023",
                "latitute": "37.8991227",
                "longitude": "40.2022205"
            },
            {
                "city": "Diyarbakır",
                "name": "Vali Gökhan Aydıner Mesleki ve Teknik Anadolu Lisesi",
                "is_validated": true,
                "url": "https://twitter.com/diyarbakirbld/status/1622622661649080322",
                "validation_date": "07.02.2023",
                "latitute": "37.939937",
                "longitude": "40.1365814"
            },
            {
                "city": "Gaziantep",
                "name": "Hasan Doğan Spor Kompleksi",
                "is_validated": true,
                "url": "https://twitter.com/fatmasahin/status/1622499495853322242?s=46&t=BPAhJVUaSEp-FhJyk7mw2A",
                "validation_date": "07.02.2023",
                "latitute": "37.0575393",
                "longitude": "37.3354925"
            },
            {
                "city": "Diyarbakır",
                "name": "Nevruz Park",
                "is_validated": true,
                "url": "https://twitter.com/diyarbakirbld/status/1622625704750751744",
                "validation_date": "07.02.2023",
                "latitute": "38.3980797",
                "longitude": "37.905101"
            },
            {
                "city": "Diyarbakır",
                "name": "Şehitlik Köşkler Gençlik Merkezi Çok Amaçlı Salon",
                "is_validated": true,
                "url": "https://twitter.com/dbakirvalilik/status/1622635300794077186",
                "validation_date": "07.02.2023",
                "latitute": "37.8958575",
                "longitude": "40.2177629"
            },
            {
                "city": "Diyarbakır",
                "name": "Ergani Spor Salonu",
                "is_validated": true,
                "url": null,
                "validation_date": "09/02/2023",
                "latitute": "38.255014",
                "longitude": "39.767979"
            },
            {
                "city": "Gaziantep",
                "name": "Şehitkamil Belediyesi Beykent Spor Salonu",
                "is_validated": true,
                "url": "https://twitter.com/sehitkamilbel/status/1622637257189470210?s=46&t=BPAhJVUaSEp-FhJyk7mw2A",
                "validation_date": "07.02.2023",
                "latitute": "37.1301153",
                "longitude": "37.3970864"
            },
            {
                "city": "Gaziantep",
                "name": "Çiçek Plaza Düğün Salonu",
                "is_validated": true,
                "url": "https://instagram.com/stories/cicekplazagaziantep/3032241723521749525?utm_source=ig_story_item_share&igshid=NTdlMDg3MTY=",
                "validation_date": "07.02.2023",
                "latitute": "37.0953498",
                "longitude": "37.3937555"
            },
            {
                "city": "Malatya",
                "name": "Akçadağ Anadolu Lisesi",
                "is_validated": true,
                "url": "https://twitter.com/tcmalatyav/status/1622462732195835904?s=46&t=BPAhJVUaSEp-FhJyk7mw2A",
                "validation_date": null,
                "latitute": "38.3786674",
                "longitude": "37.5841295"
            },
            {
                "city": "Diyarbakır",
                "name": "Şehit Namık Tümer İlköğretim Okulu",
                "is_validated": true,
                "url": "https://twitter.com/diyarbakirbld/status/1622621969840590848",
                "validation_date": "07.02.2023",
                "latitute": "37.9068155",
                "longitude": "40.2020865"
            },
            {
                "city": "Diyarbakır",
                "name": "Evliya Çelebi Ortaokulu",
                "is_validated": true,
                "url": "https://twitter.com/diyarbakirbld/status/1622622661649080322",
                "validation_date": "07.02.2023",
                "latitute": "37.923794",
                "longitude": "40.1098984"
            },
            {
                "city": "Adana",
                "name": "Çukurova Yurdu",
                "is_validated": true,
                "url": null,
                "validation_date": "09/02/2023",
                "latitute": "37.0354281",
                "longitude": "35.3554898"
            },
            {
                "city": "Kayseri",
                "name": "Elegance Rezidans ",
                "is_validated": true,
                "url": null,
                "validation_date": "08/02/2023",
                "latitute": "38.7715666",
                "longitude": "35.4137475"
            },
            {
                "city": "Malatya",
                "name": "Dedekorkut Sosyal Tesisleri",
                "is_validated": true,
                "url": "https://twitter.com/selahattingrkn/status/1622427802090835968?s=46&t=BPAhJVUaSEp-FhJyk7mw2A",
                "validation_date": null,
                "latitute": "38.3481796",
                "longitude": "38.2876017"
            },
            {
                "city": "Karaman",
                "name": "KYK Hatuniye Kız Öğrenci Yurdu",
                "is_validated": true,
                "url": null,
                "validation_date": "08.02.2023",
                "latitute": "37.181703",
                "longitude": "33.2536254"
            },
            {
                "city": "Adana",
                "name": "Pınar Elite Otel ",
                "is_validated": true,
                "url": null,
                "validation_date": "08/02/2023",
                "latitute": "36.9852575",
                "longitude": "35.3266106"
            },
            {
                "city": "Kahramanmaraş",
                "name": "Atatürk Parkı",
                "is_validated": true,
                "url": "https://gsb.gov.tr/haber-detay.html/968",
                "validation_date": "07.02.2023",
                "latitute": "37.5565262",
                "longitude": "36.9207321"
            },
            {
                "city": "Kahramanmaraş",
                "name": "12 Şubat Stadı",
                "is_validated": true,
                "url": null,
                "validation_date": "09/02/2023",
                "latitute": "37.5887218",
                "longitude": "36.8965414"
            },
            {
                "city": "Kahramanmaraş",
                "name": "Batıpark Spor Salonu",
                "is_validated": true,
                "url": null,
                "validation_date": "09/02/2023",
                "latitute": "37.5886195",
                "longitude": "36.9118623"
            },
            {
                "city": "Diyarbakır",
                "name": "TOBB İlkokulu",
                "is_validated": true,
                "url": "https://twitter.com/diyarbakirbld/status/1622622661649080322",
                "validation_date": "07.02.2023",
                "latitute": "37.9176532",
                "longitude": "40.1082884"
            },
            {
                "city": "Diyarbakır",
                "name": "Bağlar Gençlik Merkezi",
                "is_validated": true,
                "url": null,
                "validation_date": "09/02/2023",
                "latitute": "37.9194983",
                "longitude": "40.1946267"
            },
            {
                "city": "Diyarbakır",
                "name": "İMKB 75. Yıl YİBO",
                "is_validated": true,
                "url": "https://twitter.com/diyarbakirbld/status/1622622661649080322",
                "validation_date": "07.02.2023",
                "latitute": "37.9164732",
                "longitude": "40.2119268"
            },
            {
                "city": "Diyarbakır",
                "name": "Yenişehir Seyrantepe Spor Salonu",
                "is_validated": true,
                "url": null,
                "validation_date": "09/02/2023",
                "latitute": "37.9353375",
                "longitude": "40.2066322"
            },
            {
                "city": "Malatya",
                "name": "Malatya Otogarı (MAŞTİ)",
                "is_validated": true,
                "url": "https://twitter.com/selahattingrkn/status/1622422476280954882?s=46&t=BPAhJVUaSEp-FhJyk7mw2A",
                "validation_date": null,
                "latitute": "38.3980797",
                "longitude": "37.905101"
            },
            {
                "city": "Diyarbakır",
                "name": "Yeni Diyarbakır AL",
                "is_validated": true,
                "url": "https://twitter.com/diyarbakirbld/status/1622622331301511169",
                "validation_date": "07.02.2023",
                "latitute": "37.9077932",
                "longitude": "40.2132026"
            },
            {
                "city": "Malatya",
                "name": "Nesibe Aydın Kampüsü",
                "is_validated": true,
                "url": "https://twitter.com/nesibeaydin/status/1622517062126936064?s=46&t=Ugb531WRI6HRdIIJZZj-TQ",
                "validation_date": "07.02.2023",
                "latitute": "38.3088648",
                "longitude": "38.2666177"
            },
            {
                "city": "Malatya",
                "name": "Salköprü Semt Konağı",
                "is_validated": true,
                "url": "https://twitter.com/selahattingrkn/status/1622427802090835968?s=46&t=BPAhJVUaSEp-FhJyk7mw2A",
                "validation_date": "07.02.2023",
                "latitute": "38.3551866",
                "longitude": "38.3049724"
            },
            {
                "city": "Kocaeli",
                "name": "La Flora House Hotel",
                "is_validated": true,
                "url": "https://www.instagram.com/stories/lotusmeat/3033074465344709007/",
                "validation_date": "08.02.2023",
                "latitute": "40.7659531",
                "longitude": "29.96613"
            },
            {
                "city": "Mersin",
                "name": "Atlantis Dalış Merkezi & Butik Otel ",
                "is_validated": true,
                "url": null,
                "validation_date": "08/02/2023",
                "latitute": "36.459122",
                "longitude": "34.1344491"
            },
            {
                "city": "Antalya",
                "name": "Dream World Palace Hotel",
                "is_validated": true,
                "url": "https://dreamworldpalace.com.tr/",
                "validation_date": "08.02.2023",
                "latitute": "36.8089297",
                "longitude": "31.3508799"
            },
            {
                "city": "Malatya",
                "name": "Malatya Kuluncak İlçe Milli Eğitim Müdürlüğü",
                "is_validated": true,
                "url": "https://twitter.com/tcmalatyav/status/1622462732195835904?s=46&t=BPAhJVUaSEp-FhJyk7mw2A",
                "validation_date": null,
                "latitute": "38.3980797",
                "longitude": "37.905101"
            },
            {
                "city": "Osmaniye",
                "name": "Osmaniye Çok Amaçlı Spor Salonu",
                "is_validated": true,
                "url": "https://twitter.com/kasapoglu/status/1622646258308349954",
                "validation_date": "07.02.2023",
                "latitute": "37.0527418",
                "longitude": "36.2305132"
            },
            {
                "city": "Osmaniye",
                "name": "Aslantaş Gençlik Kampı",
                "is_validated": true,
                "url": null,
                "validation_date": "09/02/2023",
                "latitute": "37.3166759",
                "longitude": "36.234255"
            },
            {
                "city": "Şanlıurfa",
                "name": "Urfa Kısas Cemevi",
                "is_validated": true,
                "url": "https://twitter.com/turkdaimaileri/status/1622567979270516736?s=46&t=BPAhJVUaSEp-FhJyk7mw2A",
                "validation_date": "07.02.2023",
                "latitute": "37.1056589",
                "longitude": "38.9326225"
            },
            {
                "city": "Malatya",
                "name": "İlhan Akıncı Erkek Öğrenci Yurdu",
                "is_validated": true,
                "url": null,
                "validation_date": "09/02/2023",
                "latitute": "38.3293252",
                "longitude": "38.4477939"
            },
            {
                "city": "Malatya",
                "name": "Darende Hükümet Konağı",
                "is_validated": true,
                "url": "https://twitter.com/selahattingrkn/status/1622427802090835968?s=46&t=BPAhJVUaSEp-FhJyk7mw2A",
                "validation_date": null,
                "latitute": "38.3786674",
                "longitude": "37.5841295"
            },
            {
                "city": "Mardin",
                "name": "Mons Masius ",
                "is_validated": true,
                "url": null,
                "validation_date": "09/02/2023",
                "latitute": "37.4153949",
                "longitude": "41.3749865"
            },
            {
                "city": "Malatya",
                "name": "Eşref Bitlis Erkek Öğrenci Yurdu",
                "is_validated": true,
                "url": null,
                "validation_date": "09/02/2023",
                "latitute": "38.3450086",
                "longitude": "38.4143755"
            },
            {
                "city": "Diyarbakır",
                "name": "Necip Aşkın Diyarbakır Anadolu Lisesi",
                "is_validated": true,
                "url": "https://twitter.com/diyarbakirbld/status/1622622661649080322",
                "validation_date": "07.02.2023",
                "latitute": "37.9164732",
                "longitude": "40.2119268"
            },
            {
                "city": "Şanlıurfa",
                "name": "Akçakale Spor Salonu",
                "is_validated": true,
                "url": "https://gsb.gov.tr/haber-detay.html/968",
                "validation_date": "09/02/2023",
                "latitute": "37.106374",
                "longitude": "38.5365394"
            },
            {
                "city": "Malatya",
                "name": "Arapgir Belediyesi",
                "is_validated": true,
                "url": "https://twitter.com/tcmalatyav/status/1622462732195835904?s=46&t=BPAhJVUaSEp-FhJyk7mw2A",
                "validation_date": null,
                "latitute": "38.3786674",
                "longitude": "37.5841295"
            },
            {
                "city": "Osmaniye",
                "name": "Osmaniye Kadirli Cemevi",
                "is_validated": true,
                "url": "https://twitter.com/turkdaimaileri/status/1622567979270516736?s=46&t=BPAhJVUaSEp-FhJyk7mw2A",
                "validation_date": null,
                "latitute": "37.5565262",
                "longitude": "36.9207321"
            },
            {
                "city": "Osmaniye",
                "name": "Kadirli Karma Yurt Müdürlüğü",
                "is_validated": true,
                "url": "https://twitter.com/kasapoglu/status/1622646258308349954",
                "validation_date": "07.02.2023",
                "latitute": "37.4251245",
                "longitude": "35.9919199"
            },
            {
                "city": "Osmaniye",
                "name": "Osmaniye Olimpik Havuz",
                "is_validated": true,
                "url": "https://twitter.com/kasapoglu/status/1622646258308349954",
                "validation_date": "07.02.2023",
                "latitute": "37.0528865",
                "longitude": "36.1586274"
            },
            {
                "city": "Şanlıurfa",
                "name": "İpekyol Gençlik Merkezi",
                "is_validated": true,
                "url": "https://gsb.gov.tr/haber-detay.html/968",
                "validation_date": "09/02/2023",
                "latitute": "37.1806545",
                "longitude": "38.781311"
            },
            {
                "city": "Şanlıurfa",
                "name": "Birecik Gençlik Merkezi",
                "is_validated": true,
                "url": "https://twitter.com/sanliurfabld/status/1622444884618616834?s=46&t=BPAhJVUaSEp-FhJyk7mw2A",
                "validation_date": "07.02.2023",
                "latitute": "37.1056589",
                "longitude": "38.9000033"
            },
            {
                "city": "Osmaniye",
                "name": "Osmaniye Tosyalı Spor Salonu",
                "is_validated": true,
                "url": "https://twitter.com/kasapoglu/status/1622646258308349954",
                "validation_date": "07.02.2023",
                "latitute": "37.0678607",
                "longitude": "36.223388"
            },
            {
                "city": "Şanlıurfa",
                "name": "ASKON Şanlıurfa Şubesi",
                "is_validated": true,
                "url": "https://twitter.com/orhanaydin/status/1622517195937923075?s=46&t=BPAhJVUaSEp-FhJyk7mw2A",
                "validation_date": null,
                "latitute": "37.1717009",
                "longitude": "38.8094184"
            },
            {
                "city": "Osmaniye",
                "name": "Osmaniye Gençlik Merkezi",
                "is_validated": true,
                "url": "https://twitter.com/kasapoglu/status/1622646258308349954",
                "validation_date": "07.02.2023",
                "latitute": "37.0678607",
                "longitude": "36.223388"
            },
            {
                "city": "Osmaniye",
                "name": "Kadirli Gençlik Merkezi",
                "is_validated": true,
                "url": "https://twitter.com/kasapoglu/status/1622646258308349954",
                "validation_date": "07.02.2023",
                "latitute": "37.3919548",
                "longitude": "36.0948787"
            },
            {
                "city": "Şanlıurfa",
                "name": "Hilvan Gençlik Merkezi",
                "is_validated": true,
                "url": "https://twitter.com/sanliurfabld/status/1622444884618616834?s=46&t=BPAhJVUaSEp-FhJyk7mw2A",
                "validation_date": "07.02.2023",
                "latitute": "37.1056589",
                "longitude": "38.9000033"
            },
            {
                "city": "Şanlıurfa",
                "name": "Yenice Kapalı Spor Salonu",
                "is_validated": true,
                "url": "https://gsb.gov.tr/haber-detay.html/968",
                "validation_date": "09/02/2023",
                "latitute": "37.1059191",
                "longitude": "38.8145383"
            },
            {
                "city": "Şanlıurfa",
                "name": "Viranşehir Gençlik Merkezi",
                "is_validated": true,
                "url": "https://twitter.com/sanliurfabld/status/1622478014129782784?s=46&t=BPAhJVUaSEp-FhJyk7mw2A",
                "validation_date": "07.02.2023",
                "latitute": "37.1623533",
                "longitude": "38.8256934"
            },
            {
                "city": "Osmaniye",
                "name": "Osmaniye İl Müdürlüğü Ana Bina",
                "is_validated": true,
                "url": "https://twitter.com/kasapoglu/status/1622646258308349954",
                "validation_date": "07.02.2023",
                "latitute": "37.0715183",
                "longitude": "36.2411491"
            },
            {
                "city": "Şanlıurfa",
                "name": "Kitap Otağı Gençlik Merkezi",
                "is_validated": true,
                "url": "https://twitter.com/sanliurfabld/status/1622478014129782784?s=46&t=BPAhJVUaSEp-FhJyk7mw2A",
                "validation_date": "07.02.2023",
                "latitute": "37.1768101",
                "longitude": "38.8195006"
            },
            {
                "city": "Osmaniye",
                "name": "Cevdetiye Spor Eğitim Merkezi",
                "is_validated": true,
                "url": "https://twitter.com/kasapoglu/status/1622646258308349954",
                "validation_date": "07.02.2023",
                "latitute": "37.133333",
                "longitude": "36.1912453"
            },
            {
                "city": "Şanlıurfa",
                "name": "Bozova Gençlik Merkezi",
                "is_validated": true,
                "url": "https://twitter.com/sanliurfabld/status/1622444884618616834?s=46&t=BPAhJVUaSEp-FhJyk7mw2A",
                "validation_date": "07.02.2023",
                "latitute": "37.1056589",
                "longitude": "38.9000033"
            },
            {
                "city": "Şanlıurfa",
                "name": "Rabia Meydanı",
                "is_validated": true,
                "url": "https://twitter.com/sanliurfabld/status/1622478014129782784?s=46&t=BPAhJVUaSEp-FhJyk7mw2A",
                "validation_date": "07.02.2023",
                "latitute": "37.1623533",
                "longitude": "38.8256934"
            },
            {
                "city": "Diyarbakır",
                "name": "Seyrantepe Büyük Salon",
                "is_validated": true,
                "url": "https://twitter.com/dbakirvalilik/status/1622635300794077186",
                "validation_date": "07.02.2023",
                "latitute": "37.9569206",
                "longitude": "40.1579971"
            },
            {
                "city": "Şanlıurfa",
                "name": "Karaköprü Gençlik Merkezi",
                "is_validated": true,
                "url": "https://gsb.gov.tr/haber-detay.html/968",
                "validation_date": "09/02/2023",
                "latitute": "37.2332045",
                "longitude": "38.8002162"
            },
            {
                "city": "Diyarbakır",
                "name": "Halid Bin Velid Erkek Yurdu Müdürlüğü",
                "is_validated": true,
                "url": null,
                "validation_date": "09/02/2023",
                "latitute": "37.9099383",
                "longitude": "40.143444"
            },
            {
                "city": "Şanlıurfa",
                "name": "Birecik Spor Salonu",
                "is_validated": true,
                "url": "https://gsb.gov.tr/haber-detay.html/968",
                "validation_date": "09/02/2023",
                "latitute": "36.9824134",
                "longitude": "38.0398426"
            },
            {
                "city": "Malatya",
                "name": "Battalgazi Belediyesi",
                "is_validated": true,
                "url": "https://twitter.com/tcmalatyav/status/1622462732195835904?s=46&t=BPAhJVUaSEp-FhJyk7mw2A",
                "validation_date": null,
                "latitute": "38.3527676",
                "longitude": "38.3316816"
            },
            {
                "city": "Diyarbakır",
                "name": "Muhammet Yurtoğlu Mesleki ve Teknik Anadolu Lisesi",
                "is_validated": true,
                "url": "https://twitter.com/diyarbakirbld/status/1622622661649080322",
                "validation_date": "07.02.2023",
                "latitute": "37.9400558",
                "longitude": "40.0687296"
            },
            {
                "city": "Diyarbakır",
                "name": "Şehitlik Köşkler Spor Salonu",
                "is_validated": true,
                "url": "https://twitter.com/dbakirvalilik/status/1622635300794077186",
                "validation_date": "07.02.2023",
                "latitute": "37.894796",
                "longitude": "40.2180615"
            },
            {
                "city": "Diyarbakır",
                "name": "Selahattin Eyyubi Kız Yurdu Müdürlüğü",
                "is_validated": true,
                "url": null,
                "validation_date": "09/02/2023",
                "latitute": "37.9242479",
                "longitude": "40.2421174"
            },
            {
                "city": "Şanlıurfa",
                "name": "Toki Batıkent Gençlik Merkezi",
                "is_validated": true,
                "url": "https://twitter.com/sanliurfabld/status/1622478014129782784?s=46&t=BPAhJVUaSEp-FhJyk7mw2A",
                "validation_date": "07.02.2023",
                "latitute": "37.1366831",
                "longitude": "38.7452891"
            },
            {
                "city": "Diyarbakır",
                "name": "Türk Telekom MTAL Güney Gençlik Merkezi",
                "is_validated": true,
                "url": "https://twitter.com/diyarbakirbld/status/1622622661649080322",
                "validation_date": "07.02.2023",
                "latitute": "37.9237072",
                "longitude": "40.1544771"
            },
            {
                "city": "Diyarbakır",
                "name": "Diyarbakır Anadolu Lisesi",
                "is_validated": true,
                "url": "https://twitter.com/diyarbakirbld/status/1622622331301511169",
                "validation_date": "07.02.2023",
                "latitute": "37.9162399",
                "longitude": "40.1957387"
            },
            {
                "city": "Malatya",
                "name": "Beydağı Gençlik",
                "is_validated": true,
                "url": null,
                "validation_date": "09/02/2023",
                "latitute": "38.3482939",
                "longitude": "38.2722336"
            },
            {
                "city": "Mardin",
                "name": "Midyat Antik Otel",
                "is_validated": true,
                "url": null,
                "validation_date": "08/02/2023 ",
                "latitute": "37.415382",
                "longitude": "41.3070566"
            },
            {
                "city": "Malatya",
                "name": "Akçadağ Şehit Alper Güde Teknik Lise ve Çok Programlı Lise",
                "is_validated": true,
                "url": "https://twitter.com/tcmalatyav/status/1622462732195835904?s=46&t=BPAhJVUaSEp-FhJyk7mw2A",
                "validation_date": null,
                "latitute": "38.3786674",
                "longitude": "37.5841295"
            },
            {
                "city": "Kahramanmaraş",
                "name": "Kafum",
                "is_validated": true,
                "url": "https://gsb.gov.tr/haber-detay.html/968",
                "validation_date": "07.02.2023",
                "latitute": "37.558479",
                "longitude": "36.9067045"
            },
            {
                "city": "Diyarbakır",
                "name": "Divan Hotel Diyarbakır",
                "is_validated": true,
                "url": "https://www.instagram.com/p/CocCDmzt_CI/?igshid=OTRmMjhlYjM=",
                "validation_date": "09/02/2023",
                "latitute": "37.9256913",
                "longitude": "40.1615821"
            },
            {
                "city": "Diyarbakır",
                "name": "Lice Spor Salonu",
                "is_validated": true,
                "url": null,
                "validation_date": "09/02/2023",
                "latitute": "38.8483988",
                "longitude": "30.5624936"
            },
            {
                "city": "Şanlıurfa",
                "name": "Süleymaniye Seyit Hışırlı Gençlik Merkezi",
                "is_validated": true,
                "url": "https://twitter.com/sanliurfabld/status/1622478014129782784?s=46&t=BPAhJVUaSEp-FhJyk7mw2A",
                "validation_date": "07.02.2023",
                "latitute": "37.1645698",
                "longitude": "38.7698319"
            },
            {
                "city": "Şanlıurfa",
                "name": "Ahmet Yesevi Gençlik Merkezi",
                "is_validated": true,
                "url": "https://twitter.com/sanliurfabld/status/1622444884618616834?s=46&t=BPAhJVUaSEp-FhJyk7mw2A",
                "validation_date": "07.02.2023",
                "latitute": "37.1056589",
                "longitude": "38.9000033"
            },
            {
                "city": "Gaziantep",
                "name": "Uğur Okulları Gaziantep Kampüsü",
                "is_validated": true,
                "url": "https://www.instagram.com/p/CoTp-OFqsSy/?igshid=NTdlMDg3MTY=",
                "validation_date": null,
                "latitute": "37.0467456",
                "longitude": "37.1942902"
            },
            {
                "city": "Gaziantep",
                "name": "Koşuyolu",
                "is_validated": true,
                "url": "https://twitter.com/turkdaimaileri/status/1622567979270516736?s=46&t=BPAhJVUaSEp-FhJyk7mw2A",
                "validation_date": null,
                "latitute": "37.0492853",
                "longitude": "37.2895748"
            },
            {
                "city": "Kahramanmaraş",
                "name": "Hanefi Mahçiçek Stadyumu",
                "is_validated": true,
                "url": "https://gsb.gov.tr/haber-detay.html/968",
                "validation_date": "07.02.2023",
                "latitute": "37.5577078",
                "longitude": "36.932285"
            },
            {
                "city": "Şanlıurfa",
                "name": "İbrahim Halil Yıldırım Parkı",
                "is_validated": true,
                "url": "https://twitter.com/sanliurfabld/status/1622478014129782784?s=46&t=BPAhJVUaSEp-FhJyk7mw2A",
                "validation_date": "07.02.2023",
                "latitute": "37.1713751",
                "longitude": "38.6365026"
            },
            {
                "city": "Konya",
                "name": "Ereğli Erkek Yurdu",
                "is_validated": true,
                "url": "https://www.kykyurtlar.com/eregli-erkek-yurdu-54768-kyk-yurdu/",
                "validation_date": "09/02/2023",
                "latitute": "37.4721643",
                "longitude": "34.0364136"
            },
            {
                "city": "Malatya",
                "name": "Akçadağ Belediyesi",
                "is_validated": true,
                "url": "https://twitter.com/tcmalatyav/status/1622462732195835904?s=46&t=BPAhJVUaSEp-FhJyk7mw2A",
                "validation_date": null,
                "latitute": "38.343635",
                "longitude": "37.9714153"
            },
            {
                "city": "Osmaniye",
                "name": "Kayıboyu Kız Yurdu",
                "is_validated": true,
                "url": "https://twitter.com/kasapoglu/status/1622646258308349954",
                "validation_date": "07.02.2023",
                "latitute": "37.2143353",
                "longitude": "36.0402136"
            },
            {
                "city": "Gaziantep",
                "name": "M. Vehbi Dinçerler Spor Salonu",
                "is_validated": true,
                "url": "https://twitter.com/fatmasahin/status/1622499495853322242?s=46&t=BPAhJVUaSEp-FhJyk7mw2A",
                "validation_date": "07.02.2023",
                "latitute": "37.0590282",
                "longitude": "37.3089046"
            },
            {
                "city": "Osmaniye",
                "name": "OKÜ Genç Ofis ve Otağ Çadırı",
                "is_validated": true,
                "url": "https://twitter.com/kasapoglu/status/1622646258308349954",
                "validation_date": "07.02.2023",
                "latitute": "37.0423428",
                "longitude": "36.2213971"
            },
            {
                "city": "Malatya",
                "name": "Malatya Nikah Sarayı",
                "is_validated": true,
                "url": "https://twitter.com/selahattingrkn/status/1622422476280954882?s=46&t=BPAhJVUaSEp-FhJyk7mw2A",
                "validation_date": null,
                "latitute": "38.3980797",
                "longitude": "37.905101"
            },
            {
                "city": "Şanlıurfa",
                "name": "Hayati Harrani Gençlik Merkezi",
                "is_validated": true,
                "url": "https://twitter.com/sanliurfabld/status/1622444884618616834?s=46&t=BPAhJVUaSEp-FhJyk7mw2A",
                "validation_date": "07.02.2023",
                "latitute": "37.1056589",
                "longitude": "38.9000033"
            },
            {
                "city": "Malatya",
                "name": "Olimpik Kapalı Yüzme Havuzu",
                "is_validated": true,
                "url": null,
                "validation_date": "09/02/2023",
                "latitute": "38.3476673",
                "longitude": "38.2717203"
            },
            {
                "city": "Malatya",
                "name": "Çok Amaçlı Spor Salonu",
                "is_validated": true,
                "url": null,
                "validation_date": "09/02/2023",
                "latitute": "38.3476674",
                "longitude": "38.2717311"
            },
            {
                "city": "Malatya",
                "name": "2. Ordu Komutanlığı - İnönü Kışlası",
                "is_validated": true,
                "url": null,
                "validation_date": "09/02/2023",
                "latitute": "38.3456722",
                "longitude": "38.330264"
            },
            {
                "city": "Şanlıurfa",
                "name": "Bahçelievler Gençlik Merkezi",
                "is_validated": true,
                "url": "https://gsb.gov.tr/haber-detay.html/968",
                "validation_date": "09/02/2023",
                "latitute": "37.1649903",
                "longitude": "38.7903377"
            },
            {
                "city": "Diyarbakır",
                "name": "Diyarbakır Stadyumu",
                "is_validated": true,
                "url": null,
                "validation_date": "09/02/2023",
                "latitute": "37.9426634",
                "longitude": "40.0504232"
            },
            {
                "city": "Osmaniye",
                "name": "Karacaoğlan Erkek Yurdu",
                "is_validated": true,
                "url": "https://twitter.com/kasapoglu/status/1622646258308349954",
                "validation_date": "07.02.2023",
                "latitute": "37.0374138",
                "longitude": "36.2245728"
            },
            {
                "city": "Adana",
                "name": "Kozan Yurdu",
                "is_validated": true,
                "url": null,
                "validation_date": "09/02/2023",
                "latitute": "37.4558815",
                "longitude": "35.7997631"
            },
            {
                "city": "Hatay",
                "name": "Dörtyol Süleyman Demirel Anadolu Lisesi",
                "is_validated": true,
                "url": "https://www.instagram.com/p/CoXjqwZID4_/",
                "validation_date": "08.02.2023",
                "latitute": "36.824001",
                "longitude": "36.2001973"
            },
            {
                "city": "Hatay",
                "name": "Dörtyol Ocaklı Anaokulu",
                "is_validated": true,
                "url": "https://www.instagram.com/p/CoXjqwZID4_/",
                "validation_date": "08.02.2023",
                "latitute": "36.8443558",
                "longitude": "36.2217"
            },
            {
                "city": "Hatay",
                "name": "Dörtyol İlk Adım Anaokulu",
                "is_validated": true,
                "url": "https://www.instagram.com/p/CoXjqwZID4_/",
                "validation_date": "08.02.2023",
                "latitute": "36.834833",
                "longitude": "36.210576"
            },
            {
                "city": "Şanlıurfa",
                "name": "Ceylanpınar Büyükşehir Gençlik Merkezi",
                "is_validated": true,
                "url": "https://twitter.com/sanliurfabld/status/1622444884618616834?s=46&t=BPAhJVUaSEp-FhJyk7mw2A",
                "validation_date": "07.02.2023",
                "latitute": "37.1056589",
                "longitude": "38.9000033"
            },
            {
                "city": "Hatay",
                "name": "Dörtyol Kuzuculu Ortaokulu",
                "is_validated": true,
                "url": "https://www.instagram.com/p/CoXjqwZID4_/",
                "validation_date": "08.02.2023",
                "latitute": "36.8802869",
                "longitude": "36.2236401"
            },
            {
                "city": "Hatay",
                "name": "Dörtyol Şehit Ayhan Kıymacı İlkokulu",
                "is_validated": true,
                "url": "https://www.instagram.com/p/CoXjqwZID4_/",
                "validation_date": "08.02.2023",
                "latitute": "36.8269319",
                "longitude": "36.1989202"
            },
            {
                "city": "Gaziantep",
                "name": "Aktoprak Futbol Sahası",
                "is_validated": true,
                "url": null,
                "validation_date": "09/02/2023",
                "latitute": "37.1962405",
                "longitude": "36.7398175"
            },
            {
                "city": "Diyarbakır",
                "name": "Bağlar İBB Kiptaş Mesleki ve Teknik Anadolu Lisesi",
                "is_validated": true,
                "url": "https://twitter.com/diyarbakirbld/status/1622621969840590848",
                "validation_date": "07.02.2023",
                "latitute": "37.9157994",
                "longitude": "40.1685063"
            },
            {
                "city": "Adana",
                "name": "Adana Gençlik Merkezi",
                "is_validated": true,
                "url": null,
                "validation_date": "09/02/2023",
                "latitute": "37.033226",
                "longitude": "35.1971186"
            },
            {
                "city": "Osmaniye",
                "name": "Düziçi Spor Salonu ve Gençlik Merkezi",
                "is_validated": true,
                "url": "https://twitter.com/kasapoglu/status/1622646258308349954",
                "validation_date": "07.02.2023",
                "latitute": "38.4054465",
                "longitude": "32.3533762"
            },
            {
                "city": "Gaziantep",
                "name": "Yavuzeli Spor Salonu",
                "is_validated": true,
                "url": null,
                "validation_date": "09/02/2023",
                "latitute": "37.0202532",
                "longitude": "37.7892579"
            },
            {
                "city": "Gaziantep",
                "name": "Yeditepe Yüzme Havuzu",
                "is_validated": true,
                "url": "https://twitter.com/fatmasahin/status/1622499495853322242?s=46&t=BPAhJVUaSEp-FhJyk7mw2A",
                "validation_date": "07.02.2023",
                "latitute": "37.0358597",
                "longitude": "37.3296948"
            },
            {
                "city": "Gaziantep",
                "name": "Şahinbey Spor Salonu",
                "is_validated": true,
                "url": null,
                "validation_date": "09/02/2023",
                "latitute": "37.0209171",
                "longitude": "37.2763903"
            },
            {
                "city": "Hatay",
                "name": "Dörtyol Gazi İlkokulu",
                "is_validated": true,
                "url": "https://www.instagram.com/p/CoXjqwZID4_/",
                "validation_date": "08.02.2023",
                "latitute": "36.8391031",
                "longitude": "36.2305867"
            },
            {
                "city": "Adana",
                "name": "Eral İlokul ve Ortaokul",
                "is_validated": true,
                "url": "https://twitter.com/zeydankaralar01/status/1622644817506205709?s=46&t=BPAhJVUaSEp-FhJyk7mw2A",
                "validation_date": "07.02.2023",
                "latitute": "37.0471764",
                "longitude": "35.3033661"
            },
            {
                "city": "Gaziantep",
                "name": "Gazikent Yüzme Havuzu",
                "is_validated": true,
                "url": "https://twitter.com/fatmasahin/status/1622499495853322242?s=46&t=BPAhJVUaSEp-FhJyk7mw2A",
                "validation_date": "07.02.2023",
                "latitute": "37.0948312",
                "longitude": "37.3994441"
            },
            {
                "city": "Gaziantep",
                "name": "Talat Özkarslı Spor Salonu",
                "is_validated": true,
                "url": "https://twitter.com/fatmasahin/status/1622499495853322242?s=46&t=BPAhJVUaSEp-FhJyk7mw2A",
                "validation_date": "07.02.2023",
                "latitute": "37.0580593",
                "longitude": "37.3938128"
            },
            {
                "city": "Hatay",
                "name": "Dörtyol Cennet Ana Kız Anadolu İmamhatip Lisesi",
                "is_validated": true,
                "url": "https://www.instagram.com/p/CoXjqwZID4_/",
                "validation_date": "08.02.2023",
                "latitute": "36.8474694",
                "longitude": "36.2230151"
            },
            {
                "city": "Hatay",
                "name": "Dörtyol Hacı Ahmet İlhan İlkokulu",
                "is_validated": true,
                "url": "https://www.instagram.com/p/CoXjqwZID4_/",
                "validation_date": "08.02.2023",
                "latitute": "36.8517525",
                "longitude": "36.2106612"
            },
            {
                "city": "Hatay",
                "name": "Dörtyol Öğretmenevi ASO",
                "is_validated": true,
                "url": "https://www.instagram.com/p/CoXjqwZID4_/",
                "validation_date": "08.02.2023",
                "latitute": "36.8341746",
                "longitude": "36.2212814"
            },
            {
                "city": "Hatay",
                "name": "Dörtyol Erdi 2 Kapalı Halısaha",
                "is_validated": true,
                "url": "https://www.instagram.com/p/CoXjqwZID4_/",
                "validation_date": "08.02.2023",
                "latitute": "36.851016",
                "longitude": "36.208948"
            },
            {
                "city": "Hatay",
                "name": "Dörtyol Yeşilköy 19 Aralık Ortaokulu",
                "is_validated": true,
                "url": "https://www.instagram.com/p/CoXjqwZID4_/",
                "validation_date": "08.02.2023",
                "latitute": "36.8585732",
                "longitude": "36.1997458"
            },
            {
                "city": "Malatya",
                "name": "Özalper Semt Konağı",
                "is_validated": true,
                "url": "https://twitter.com/selahattingrkn/status/1622427802090835968?s=46&t=BPAhJVUaSEp-FhJyk7mw2A",
                "validation_date": "07.02.2023",
                "latitute": "38.3363417",
                "longitude": "38.283339"
            },
            {
                "city": "Hatay",
                "name": "Dörtyol Otogar Girişi Pazar Yeri",
                "is_validated": true,
                "url": "https://www.instagram.com/p/CoXjqwZID4_/",
                "validation_date": "08.02.2023",
                "latitute": "36.8301306",
                "longitude": "36.1977786"
            },
            {
                "city": "Malatya",
                "name": "Merkez Spor Salonu",
                "is_validated": true,
                "url": null,
                "validation_date": "09/02/2023",
                "latitute": "38.3471995",
                "longitude": "38.2382851"
            },
            {
                "city": "Diyarbakır",
                "name": "Halk Eğitim Merkezi Müdürlüğü",
                "is_validated": true,
                "url": "https://twitter.com/diyarbakirbld/status/1622621969840590848",
                "validation_date": "07.02.2023",
                "latitute": "37.9211507",
                "longitude": "40.1768409"
            },
            {
                "city": "Hatay",
                "name": "Dörtyol Konaklı İlkokulu",
                "is_validated": true,
                "url": "https://www.instagram.com/p/CoXjqwZID4_/",
                "validation_date": "08.02.2023",
                "latitute": "36.8078369",
                "longitude": "36.2506966"
            },
            {
                "city": "Hatay",
                "name": "Dörtyol İlçe Jandarma Komutanlığı Bahçesi",
                "is_validated": true,
                "url": "https://www.instagram.com/p/CoXjqwZID4_/",
                "validation_date": "08.02.2023",
                "latitute": "36.8291377",
                "longitude": "36.2233346"
            },
            {
                "city": "Hatay",
                "name": "Dörtyol Recep Atakaş Mesleki Teknik Anadolu Lisesi",
                "is_validated": true,
                "url": "https://www.instagram.com/p/CoXjqwZID4_/",
                "validation_date": "08.02.2023",
                "latitute": "36.820535",
                "longitude": "36.1976914"
            },
            {
                "city": "Hatay",
                "name": "Dörtyol Belediyesi Karahasanpaşa Sosyal Tesisi",
                "is_validated": true,
                "url": "https://www.instagram.com/p/CoXjqwZID4_/",
                "validation_date": "08.02.2023",
                "latitute": "36.8587634",
                "longitude": "36.2054679"
            },
            {
                "city": "Gaziantep",
                "name": "ASKON Gaziantep Şubesi",
                "is_validated": true,
                "url": "https://twitter.com/orhanaydin/status/1622517195937923075?s=46&t=BPAhJVUaSEp-FhJyk7mw2A",
                "validation_date": "07.02.2023",
                "latitute": "37.0492177",
                "longitude": "37.3224057"
            },
            {
                "city": "Malatya",
                "name": "Doğanyol Lisesi",
                "is_validated": true,
                "url": "https://twitter.com/tcmalatyav/status/1622462732195835904?s=46&t=BPAhJVUaSEp-FhJyk7mw2A",
                "validation_date": null,
                "latitute": "38.3980797",
                "longitude": "37.905101"
            },
            {
                "city": "Gaziantep",
                "name": "Nizip Gençlik Merkezi",
                "is_validated": true,
                "url": null,
                "validation_date": "09/02/2023",
                "latitute": "37.0202532",
                "longitude": "37.7892579"
            },
            {
                "city": "Diyarbakır",
                "name": "500 Evler MTAL",
                "is_validated": true,
                "url": "https://twitter.com/diyarbakirbld/status/1622622661649080322",
                "validation_date": "07.02.2023",
                "latitute": "37.9186903",
                "longitude": "40.0426139"
            },
            {
                "city": "Hatay",
                "name": "Dörtyol Necip Fazıl Ortaokulu",
                "is_validated": true,
                "url": "https://www.instagram.com/p/CoXjqwZID4_/",
                "validation_date": "08.02.2023",
                "latitute": "36.8488069",
                "longitude": "36.22807"
            },
            {
                "city": "Hatay",
                "name": "Dörtyol Berat Kapalı Halısaha",
                "is_validated": true,
                "url": "https://www.instagram.com/p/CoXjqwZID4_/",
                "validation_date": "08.02.2023",
                "latitute": "36.8136172",
                "longitude": "36.2208787"
            },
            {
                "city": "Diyarbakır",
                "name": "Süleyman Bin Halid Kız Yurdu Müdürlüğü",
                "is_validated": true,
                "url": null,
                "validation_date": "09/02/2023",
                "latitute": "37.9218137",
                "longitude": "40.1486892"
            },
            {
                "city": "Diyarbakır",
                "name": "Özel Eflatun MTAL",
                "is_validated": true,
                "url": "https://twitter.com/diyarbakirbld/status/1622621969840590848",
                "validation_date": "07.02.2023",
                "latitute": "38.3980797",
                "longitude": "37.905101"
            },
            {
                "city": "Hatay",
                "name": "Dörtyol Çaylı Barbaros İlkokulu",
                "is_validated": true,
                "url": "https://www.instagram.com/p/CoXjqwZID4_/",
                "validation_date": "08.02.2023",
                "latitute": "36.842485",
                "longitude": "36.201123"
            },
            {
                "city": "Gaziantep",
                "name": "Kamil Ocak Yüzme Havuzu",
                "is_validated": true,
                "url": "https://twitter.com/fatmasahin/status/1622499495853322242?s=46&t=BPAhJVUaSEp-FhJyk7mw2A",
                "validation_date": "07.02.2023",
                "latitute": "37.0610474",
                "longitude": "37.3995447"
            },
            {
                "city": "Diyarbakır",
                "name": "Ali Emiri Anadolu Lisesi",
                "is_validated": true,
                "url": "https://twitter.com/diyarbakirbld/status/1622622661649080322",
                "validation_date": "07.02.2023",
                "latitute": "37.9268482",
                "longitude": "40.123288"
            },
            {
                "city": "Diyarbakır",
                "name": "Çermik Spor Salonu",
                "is_validated": true,
                "url": null,
                "validation_date": "09/02/2023",
                "latitute": "38.7748919",
                "longitude": "37.6357185"
            },
            {
                "city": "Hatay",
                "name": "Dörtyol Karakese İlkokulu",
                "is_validated": true,
                "url": "https://www.instagram.com/p/CoXjqwZID4_/",
                "validation_date": "08.02.2023",
                "latitute": "36.825048",
                "longitude": "36.244592"
            },
            {
                "city": "Hatay",
                "name": "Dörtyol İlçe Emniyet Müdürlüğü Bahçesi",
                "is_validated": true,
                "url": "https://www.instagram.com/p/CoXjqwZID4_/",
                "validation_date": "08.02.2023",
                "latitute": "36.834202",
                "longitude": "36.2271179"
            },
            {
                "city": "Diyarbakır",
                "name": "Eren Şahin Eronat MTAL",
                "is_validated": true,
                "url": "https://twitter.com/diyarbakirbld/status/1622622661649080322",
                "validation_date": "07.02.2023",
                "latitute": "37.9268482",
                "longitude": "40.123288"
            },
            {
                "city": "Diyarbakır",
                "name": "Silvan Spor Salonu",
                "is_validated": true,
                "url": null,
                "validation_date": "09/02/2023",
                "latitute": "38.14073",
                "longitude": "40.999367"
            },
            {
                "city": "Hatay",
                "name": "Altınözü Gençlik Merkezi",
                "is_validated": true,
                "url": "https://gsb.gov.tr/haber-detay.html/968",
                "validation_date": "09/02/2023",
                "latitute": "36.1143747",
                "longitude": "36.2459755"
            },
            {
                "city": "Hatay",
                "name": "Reyhanlı Gençlik Merkezi",
                "is_validated": true,
                "url": "https://gsb.gov.tr/haber-detay.html/968",
                "validation_date": "09/02/2023",
                "latitute": "36.2578729",
                "longitude": "36.5604521"
            },
            {
                "city": "Hatay",
                "name": "TOKİ Spor Salonu",
                "is_validated": true,
                "url": "https://gsb.gov.tr/haber-detay.html/968",
                "validation_date": "09/02/2023",
                "latitute": "36.2005199",
                "longitude": "36.1173074"
            },
            {
                "city": "Diyarbakır",
                "name": "Sur Gençlik Merkezi",
                "is_validated": true,
                "url": null,
                "validation_date": "09/02/2023",
                "latitute": "37.9162305",
                "longitude": "40.2257939"
            },
            {
                "city": "Kahramanmaraş",
                "name": "Batıpark",
                "is_validated": true,
                "url": "https://gsb.gov.tr/haber-detay.html/968",
                "validation_date": "07.02.2023",
                "latitute": "37.5886195",
                "longitude": "36.9141583"
            },
            {
                "city": "Kahramanmaraş",
                "name": "Merkez Konteynerkent",
                "is_validated": true,
                "url": "https://twitter.com/ihhgenc/status/1622650765641646091/photo/1",
                "validation_date": null,
                "latitute": "37.5949123",
                "longitude": "36.9183218"
            },
            {
                "city": "Kahramanmaraş",
                "name": "Kahramanmaraş Merkez Spor Kompleksi",
                "is_validated": true,
                "url": null,
                "validation_date": "09/02/2023",
                "latitute": "37.5860047",
                "longitude": "36.8480454"
            },
            {
                "city": "Gaziantep",
                "name": "Beykent Spor Salonu",
                "is_validated": true,
                "url": "https://twitter.com/fatmasahin/status/1622499495853322242?s=46&t=BPAhJVUaSEp-FhJyk7mw2A",
                "validation_date": "07.02.2023",
                "latitute": "37.1301153",
                "longitude": "37.3970864"
            },
            {
                "city": "Gaziantep",
                "name": "5. Zırhlı Tugay Komutanlığı ",
                "is_validated": true,
                "url": null,
                "validation_date": "09/02/2023",
                "latitute": "37.0931588",
                "longitude": "37.3475754"
            },
            {
                "city": "Gaziantep",
                "name": "8 Şubat Yüzme Havuzu",
                "is_validated": true,
                "url": "https://twitter.com/fatmasahin/status/1622499495853322242?s=46&t=BPAhJVUaSEp-FhJyk7mw2A",
                "validation_date": "07.02.2023",
                "latitute": "37.0912296",
                "longitude": "37.3726421"
            },
            {
                "city": "Gaziantep",
                "name": "Kuzeyşehir Spor Salonu",
                "is_validated": true,
                "url": "https://twitter.com/fatmasahin/status/1622499495853322242?s=46&t=BPAhJVUaSEp-FhJyk7mw2A",
                "validation_date": "07.02.2023",
                "latitute": "37.2202093",
                "longitude": "37.3724993"
            },
            {
                "city": "Gaziantep",
                "name": "Onat Kutlar",
                "is_validated": true,
                "url": "https://twitter.com/fatmasahin/status/1622499495853322242?s=46&t=BPAhJVUaSEp-FhJyk7mw2A",
                "validation_date": "07.02.2023",
                "latitute": "37.1083417",
                "longitude": "37.3663297"
            },
            {
                "city": "Hatay",
                "name": "Dörtyol Fen Lisesi",
                "is_validated": true,
                "url": "https://www.instagram.com/p/CoXjqwZID4_/",
                "validation_date": "08.02.2023",
                "latitute": "36.8696362",
                "longitude": "36.1978064"
            },
            {
                "city": "Hatay",
                "name": "İskenderun Deniz Er Eğitim Alayı",
                "is_validated": true,
                "url": null,
                "validation_date": "08.02.2023",
                "latitute": "36.555716",
                "longitude": "36.1538725"
            },
            {
                "city": "Gaziantep",
                "name": "Nesibe Aydın Kampüsü",
                "is_validated": true,
                "url": "https://twitter.com/nesibeaydin/status/1622517062126936064?s=46&t=Ugb531WRI6HRdIIJZZj-TQ",
                "validation_date": "07.02.2023",
                "latitute": "37.0581464",
                "longitude": "37.3117335"
            },
            {
                "city": "Adana",
                "name": "Kut'ül Amare Yurdu",
                "is_validated": true,
                "url": null,
                "validation_date": "09/02/2023",
                "latitute": "37.0515228",
                "longitude": "35.3878132"
            },
            {
                "city": "Diyarbakır",
                "name": "Köşkler Spor Kompleksi",
                "is_validated": true,
                "url": null,
                "validation_date": "09/02/2023",
                "latitute": "37.8947918",
                "longitude": "40.2202502"
            },
            {
                "city": "Malatya",
                "name": "Hürriyet Parkı",
                "is_validated": true,
                "url": "https://twitter.com/selahattingrkn/status/1622427802090835968?s=46&t=BPAhJVUaSEp-FhJyk7mw2A",
                "validation_date": null,
                "latitute": "38.3483833",
                "longitude": "38.3252594"
            },
            {
                "city": "Gaziantep",
                "name": "Karakedi Saklı Bahçe",
                "is_validated": true,
                "url": "https://www.instagram.com/reel/CoU7UwfKCtE/?igshid=NTdlMDg3MTY=",
                "validation_date": "07.02.2023",
                "latitute": "37.063361",
                "longitude": "37.3739312"
            },
            {
                "city": "Hatay",
                "name": "Dörtyol Şehit Ayhan Say ÇPL Ana Binası",
                "is_validated": true,
                "url": "https://www.instagram.com/p/CoXjqwZID4_/",
                "validation_date": "08.02.2023",
                "latitute": "36.834646",
                "longitude": "36.221698"
            },
            {
                "city": "Malatya",
                "name": "ASKON Malatya Şubesi",
                "is_validated": true,
                "url": "https://twitter.com/orhanaydin/status/1622517195937923075?s=46&t=BPAhJVUaSEp-FhJyk7mw2A",
                "validation_date": "07.02.2023",
                "latitute": "38.3464048",
                "longitude": "38.2807455"
            },
            {
                "city": "Şanlıurfa",
                "name": "Şehitlik İlkokulu",
                "is_validated": true,
                "url": "https://twitter.com/sanliurfabld/status/1622478014129782784?s=46&t=BPAhJVUaSEp-FhJyk7mw2A",
                "validation_date": "07.02.2023",
                "latitute": "37.1056589",
                "longitude": "38.9000033"
            },
            {
                "city": "Şanlıurfa",
                "name": "Şerif Paşa Konakları ",
                "is_validated": true,
                "url": null,
                "validation_date": "08/02/2023",
                "latitute": "37.1530673",
                "longitude": "38.7876123"
            },
            {
                "city": "Diyarbakır",
                "name": "Fatih Anadolu İHL",
                "is_validated": true,
                "url": "https://twitter.com/diyarbakirbld/status/1622621969840590848",
                "validation_date": "07.02.2023",
                "latitute": "37.9234507",
                "longitude": "40.2144822"
            },
            {
                "city": "Malatya",
                "name": "Battalgazi Kız Öğrenci Yurdu",
                "is_validated": true,
                "url": null,
                "validation_date": "09/02/2023",
                "latitute": "38.3467056",
                "longitude": "38.3697923"
            },
            {
                "city": "Gaziantep",
                "name": "Gazikent Spor Salonu",
                "is_validated": true,
                "url": null,
                "validation_date": "09/02/2023",
                "latitute": "37.0980148",
                "longitude": "37.3578834"
            },
            {
                "city": "Gaziantep",
                "name": "Olimpik Yüzme Havuzu",
                "is_validated": true,
                "url": null,
                "validation_date": "09/02/2023",
                "latitute": "37.0688698",
                "longitude": "37.2632392"
            },
            {
                "city": "Adana",
                "name": "Atatürk Yüzme Havuzu",
                "is_validated": true,
                "url": null,
                "validation_date": "09/02/2023",
                "latitute": "36.995996",
                "longitude": "35.3187276"
            }
        ]
    },
    {
        "type": "map-container-pharmacy",
        "data": [
            {
                "city": "Malatya",
                "district": "Merkez",
                "location": "Malatya Eğitim ve Araştırma Hastanesi bahçesi",
                "latitute": "38.3489011",
                "longitude": "38.1498314"
            },
            {
                "city": "Adıyaman",
                "district": "Merkez",
                "location": "1 No'lu Sağlık Ocağı yanı",
                "latitute": "37.7626896",
                "longitude": "38.2706072"
            },
            {
                "city": "Malatya",
                "district": "Merkez",
                "location": "Turgut Özal Tıp MErkezi Hastanesi bahçesi",
                "latitute": "38.3659381",
                "longitude": "38.2106379"
            },
            {
                "city": "Gaziantep",
                "district": "Islahiye",
                "location": "İslahiye Devlet Hastanesi Bahçesi",
                "latitute": "37.0428688",
                "longitude": "36.6214169"
            },
            {
                "city": "Hatay",
                "district": "İskenderun",
                "location": "İskenderun Teknik Üniversitesi Merkez Kampüs Bahçesi ",
                "latitute": "36.5775043",
                "longitude": "36.0842468"
            },
            {
                "city": "Şanlıurfa",
                "district": "Merkez",
                "location": "Şanlıurfa Müzesi Otoparkı",
                "latitute": "37.1605822",
                "longitude": "38.7879343"
            },
            {
                "city": "Kahramanmaraş",
                "district": "Afşin",
                "location": "Pınarbaşı, Afşin Bey Caddesi",
                "latitute": "37.5747622",
                "longitude": "36.9141203"
            },
            {
                "city": "Malatya",
                "district": "Merkez",
                "location": "Battalgazi Devlet Hastanesi bahçesi",
                "latitute": "38.3464444",
                "longitude": "38.3321374"
            },
            {
                "city": "Şanlıurfa",
                "district": "Merkez",
                "location": "Karaköprü Fuar Merkezi Bahçesi",
                "latitute": "37.3017254",
                "longitude": "38.3843771"
            },
            {
                "city": "Kahramanmaraş",
                "district": "Merkez",
                "location": "Necip Fazıl Şehir Hastanesi Yörük Selim Ek Binası",
                "latitute": "37.5938191",
                "longitude": "36.9216406"
            }
        ]
    },
    {
        "type": "map-gathering-list",
        "data": [
            {
                "city": "Adana",
                "name": "ABB Güney Park",
                "source": "https://twitter.com/adana_bld/status/1622621175925858304?s=46&t=6DRXjowLZ9GX3MFYGJgnkQ",
                "latitute": "36.9673666",
                "longitude": "35.3278183"
            },
            {
                "city": "Adana",
                "name": "Kent Meydani Sucuzade Mahallesi",
                "source": "https://twitter.com/adana_bld/status/1622621175925858304?s=46&t=6DRXjowLZ9GX3MFYGJgnkQ",
                "latitute": "36.9800824",
                "longitude": "35.3184053"
            },
            {
                "city": "Adana",
                "name": "Tüyap Fuar alani",
                "source": "https://twitter.com/adana_bld/status/1622621175925858304?s=46&t=6DRXjowLZ9GX3MFYGJgnkQ",
                "latitute": "37.058023",
                "longitude": "35.247178"
            },
            {
                "city": "Adana",
                "name": "Hadırlı Mahalle Merkezi",
                "source": "https://twitter.com/adana_bld/status/1622621175925858304?s=46&t=6DRXjowLZ9GX3MFYGJgnkQ",
                "latitute": "36.9265075",
                "longitude": "35.31472"
            },
            {
                "city": "Adana",
                "name": "Spor Park Yurt Mahallesi",
                "source": "https://twitter.com/adana_bld/status/1622621175925858304?s=46&t=6DRXjowLZ9GX3MFYGJgnkQ",
                "latitute": "37.0420588",
                "longitude": "35.2209917"
            },
            {
                "city": "Adana",
                "name": "Aski Atatürk Kapali Spor Salonu",
                "source": "https://twitter.com/adana_bld/status/1622621175925858304?s=46&t=6DRXjowLZ9GX3MFYGJgnkQ",
                "latitute": "37.0436474",
                "longitude": "35.2908925"
            },
            {
                "city": "Adana",
                "name": "Eral okullar: Türkmenbasi kampüsü",
                "source": "https://twitter.com/adana_bld/status/1622621175925858304?s=46&t=6DRXjowLZ9GX3MFYGJgnkQ",
                "latitute": "37.0355568",
                "longitude": "35.2739011"
            },
            {
                "city": "Adana",
                "name": "Selahattin Eyyubi Mahalle Merkezi",
                "source": "https://twitter.com/adana_bld/status/1622621175925858304?s=46&t=6DRXjowLZ9GX3MFYGJgnkQ",
                "latitute": "37.0090825",
                "longitude": "35.3695384"
            },
            {
                "city": "Adana",
                "name": "Cumhuriyet Park Turgut Özal Niyet Akademi",
                "source": "https://twitter.com/adana_bld/status/1622621175925858304?s=46&t=6DRXjowLZ9GX3MFYGJgnkQ",
                "latitute": "37.0503136",
                "longitude": "35.2846169"
            },